[
  { "name": "Bangalore", "lat": 12.9716, "lon": 77.5946 },
  { "name": "Mumbai", "lat": 19.0760, "lon": 72.8777 },
  { "name": "Delhi", "lat": 28.7041, "lon": 77.1025 },
  { "name": "Chennai", "lat": 13.0827, "lon": 80.2707 },
  { "name": "Hyderabad", "lat": 17.3850, "lon": 78.4867 },
  { "name": "Kolkata", "lat": 22.5726, "lon": 88.3639 },
  { "name": "Ahmedabad", "lat": 23.0225, "lon": 72.5714 },
  { "name": "Pune", "lat": 18.5204, "lon": 73.8567 },
  { "name": "Chandigarh", "lat": 30.7333, "lon": 76.7794 },
  { "name": "Jaipur", "lat": 26.9124, "lon": 75.7873 }
]
